{"type":"Topology","objects":{"collection":{"type":"GeometryCollection","geometries":[{"type":"Point","coordinates":[28.673845260000064,-13.471808419999945],"properties":{"OBJECTID":276,"FID_1":276,"GlobalID":"35LPF811100_002","Type":"School","SubType":"High School","Name":"Kemuz High School","Orig_Name":"kemuz high sch","Source":"ZamStats","Province":"Copperbelt","Prov_Code":102,"District":"Masaiti","Distr_Code":102007,"LAT":-13.4718084202,"LONG":28.6738452601,"Data_year":2010}},{"type":"Point","coordinates":[28.416547910000077,-13.28480757999995],"properties":{"OBJECTID":295,"FID_1":295,"GlobalID":"35LPF534309_001","Type":"School","SubType":"High School","Name":"High School","Orig_Name":"high school","Source":"ZamStats","Province":"Copperbelt","Prov_Code":102,"District":"Masaiti","Distr_Code":102007,"LAT":-13.2848075803,"LONG":28.4165479097,"Data_year":2010}},{"type":"Point","coordinates":[28.214609146000043,-12.533329999999978],"properties":{"OBJECTID":327,"FID_1":327,"GlobalID":"35LPG319141_002","Type":"School","SubType":"High School","Name":"Chankwa High School","Orig_Name":"chankwa high","Source":"ZamStats","Province":"Copperbelt","Prov_Code":102,"District":"Mufulira","Distr_Code":102009,"LAT":-12.5333300002,"LONG":28.2146091462,"Data_year":2010}},{"type":"Point","coordinates":[28.26186000000007,-12.556539999999927],"properties":{"OBJECTID":360,"FID_1":360,"GlobalID":"35LPG370115_001","Type":"School","SubType":"High School","Name":"Pamodzi High School","Orig_Name":"pamodzi girls high school","Source":"ZamStats","Province":"Copperbelt","Prov_Code":102,"District":"Mufulira","Distr_Code":102009,"LAT":-12.5565400003,"LONG":28.2618600004,"Data_year":2010}},{"type":"Point","coordinates":[28.24541000000005,-12.545639999999935],"properties":{"OBJECTID":363,"FID_1":363,"GlobalID":"35LPG353127_001","Type":"School","SubType":"High School","Name":"Ipusukilo High School","Orig_Name":"ipusukilo high","Source":"ZamStats","Province":"Copperbelt","Prov_Code":102,"District":"Mufulira","Distr_Code":102009,"LAT":-12.5456400004,"LONG":28.24541,"Data_year":2010}},{"type":"Point","coordinates":[32.857803740000065,-11.820182649999936],"properties":{"OBJECTID":475,"FID_1":475,"GlobalID":"36LVM845933_001","Type":"School","SubType":"High School","Name":"Chama south High School","Orig_Name":"chama south high sch","Source":"ZamStats","Province":"Muchinga","Prov_Code":106,"District":"Chama","Distr_Code":106001,"LAT":-11.8201826498,"LONG":32.8578037404,"Data_year":2010}},{"type":"Point","coordinates":[32.75123572000007,-13.78344925999994],"properties":{"OBJECTID":615,"FID_1":615,"GlobalID":"36LVK731762_002","Type":"School","SubType":"High School","Name":"Feni High School","Orig_Name":"feni day high sch","Source":"ZamStats","Province":"Eastern","Prov_Code":103,"District":"Chipata","Distr_Code":103002,"LAT":-13.7834492604,"LONG":32.7512357201,"Data_year":2010}},{"type":"Point","coordinates":[32.368696560000046,-13.692120039999963],"properties":{"OBJECTID":813,"FID_1":813,"GlobalID":"36LVK317862_002","Type":"School","SubType":"High School","Name":"Kasenengwa High School","Orig_Name":"kasenengwa high school","Source":"ZamStats","Province":"Eastern","Prov_Code":103,"District":"Kasenengwa","Distr_Code":103012,"LAT":-13.6921200399,"LONG":32.3686965602,"Data_year":2010}},{"type":"Point","coordinates":[32.49570393000005,-13.703952779999952],"properties":{"OBJECTID":848,"FID_1":848,"GlobalID":"36LVK454849_002","Type":"School","SubType":"High School","Name":"Madzimoyo High School","Orig_Name":"madzimoyo h sh","Source":"ZamStats","Province":"Eastern","Prov_Code":103,"District":"Chipata","Distr_Code":103002,"LAT":-13.7039527798,"LONG":32.4957039304,"Data_year":2010}},{"type":"Point","coordinates":[30.591148110000063,-14.775728459999982],"properties":{"OBJECTID":869,"FID_1":869,"GlobalID":"36LTJ406650_001","Type":"School","SubType":"High School","Name":"Kacholola High School","Orig_Name":"kacholola high","Source":"ZamStats","Province":"Eastern","Prov_Code":103,"District":"Nyimba","Distr_Code":103006,"LAT":-14.7757284599,"LONG":30.5911481099,"Data_year":2010}},{"type":"Point","coordinates":[31.358526100000063,-14.044679319999943],"properties":{"OBJECTID":956,"FID_1":956,"GlobalID":"36LUK227467_002","Type":"School","SubType":"High School","Name":"Monde High School","Orig_Name":"monde day high sch","Source":"ZamStats","Province":"Eastern","Prov_Code":103,"District":"Petauke","Distr_Code":103007,"LAT":-14.04467932,"LONG":31.3585261004,"Data_year":2010}},{"type":"Point","coordinates":[33.158775250000076,-12.299366999999961],"properties":{"OBJECTID":1105,"FID_1":1105,"GlobalID":"36LWM172403_001","Type":"School","SubType":"High School","Name":"Kabinda High School","Orig_Name":"kabinda day high sch","Source":"ZamStats","Province":"Eastern","Prov_Code":103,"District":"Lundazi","Distr_Code":103004,"LAT":-12.2993670001,"LONG":33.1587752504,"Data_year":2010}},{"type":"Point","coordinates":[33.339098990000025,-12.408698619999939],"properties":{"OBJECTID":1127,"FID_1":1127,"GlobalID":"36LWM368282_001","Type":"School","SubType":"High School","Name":"Mwase High School","Orig_Name":"mwase day high sch","Source":"ZamStats","Province":"Eastern","Prov_Code":103,"District":"Lundazi","Distr_Code":103004,"LAT":-12.4086986199,"LONG":33.3390989901,"Data_year":2010}},{"type":"Point","coordinates":[33.11179561000006,-11.988222539999981],"properties":{"OBJECTID":1366,"FID_1":1366,"GlobalID":"36LWM121747_001","Type":"School","SubType":"High School","Name":"Emusa High School","Orig_Name":"emusa day high sch","Source":"ZamStats","Province":"Eastern","Prov_Code":103,"District":"Chasefu","Distr_Code":103010,"LAT":-11.9882225398,"LONG":33.1117956101,"Data_year":2010}},{"type":"Point","coordinates":[32.05352761000006,-14.091046999999946],"properties":{"OBJECTID":1474,"FID_1":1474,"GlobalID":"36LUK978419_002","Type":"School","SubType":"High School","Name":"Katete High School","Orig_Name":"katete high sch","Source":"ZamStats","Province":"Eastern","Prov_Code":103,"District":"Katete","Distr_Code":103003,"LAT":-14.0910470004,"LONG":32.0535276104,"Data_year":2010}},{"type":"Point","coordinates":[32.228750200000036,-14.213800139999933],"properties":{"OBJECTID":1551,"FID_1":1551,"GlobalID":"36LVK167284_001","Type":"School","SubType":"High School","Name":"Kafumbwe High School","Orig_Name":"kafumbwe high sch","Source":"ZamStats","Province":"Eastern","Prov_Code":103,"District":"Katete","Distr_Code":103003,"LAT":-14.2138001403,"LONG":32.2287502004,"Data_year":2010}},{"type":"Point","coordinates":[31.938048540000068,-13.248375219999957],"properties":{"OBJECTID":1607,"FID_1":1607,"GlobalID":"36LUL849351_001","Type":"School","SubType":"High School","Name":"Mutula High School","Orig_Name":"matula h sch","Source":"ZamStats","Province":"Eastern","Prov_Code":103,"District":"Mambwe","Distr_Code":103005,"LAT":-13.2483752204,"LONG":31.9380485398,"Data_year":2010}},{"type":"Point","coordinates":[29.034612010000046,-9.045910499999934],"properties":{"OBJECTID":1688,"FID_1":1688,"GlobalID":"35LQK236994_001","Type":"School","SubType":"High School","Name":"Mununga High School","Orig_Name":"mununga h sch","Source":"ZamStats","Province":"Luapula","Prov_Code":104,"District":"Chiengi","Distr_Code":104002,"LAT":-9.04591050007,"LONG":29.0346120103,"Data_year":2010}},{"type":"Point","coordinates":[28.099830000000054,-14.676709999999957],"properties":{"OBJECTID":1964,"FID_1":1964,"GlobalID":"35LPD184771_001","Type":"School","SubType":"High School","Name":"Chibombo High School","Orig_Name":"chibombo high school","Source":"ZamStats","Province":"Central","Prov_Code":101,"District":"Chibombo","Distr_Code":101001,"LAT":-14.67671,"LONG":28.09983,"Data_year":2010}},{"type":"Point","coordinates":[28.37733000000003,-14.978489999999965],"properties":{"OBJECTID":1985,"FID_1":1985,"GlobalID":"35LPD481435_002","Type":"School","SubType":"High School","Name":"High life High School","Orig_Name":"high life","Source":"ZamStats","Province":"Central","Prov_Code":101,"District":"Chisamba","Distr_Code":101002,"LAT":-14.9784899996,"LONG":28.3773299996,"Data_year":2010}},{"type":"Point","coordinates":[28.81484000000006,-14.647849999999949],"properties":{"OBJECTID":2005,"FID_1":2005,"GlobalID":"35LPD954798_002","Type":"School","SubType":"High School","Name":"Agro High School","Orig_Name":"agro high school","Source":"ZamStats","Province":"Central","Prov_Code":101,"District":"Chisamba","Distr_Code":101002,"LAT":-14.6478500001,"LONG":28.8148400001,"Data_year":2010}},{"type":"Point","coordinates":[28.247330000000034,-15.235209999999938],"properties":{"OBJECTID":2044,"FID_1":2044,"GlobalID":"35LPD339152_001","Type":"School","SubType":"High School","Name":"Moomba High School","Orig_Name":"moomba high school","Source":"ZamStats","Province":"Central","Prov_Code":101,"District":"Chibombo","Distr_Code":101001,"LAT":-15.2352099996,"LONG":28.2473300004,"Data_year":2010}},{"type":"Point","coordinates":[28.43360000000007,-14.431829999999934],"properties":{"OBJECTID":2088,"FID_1":2088,"GlobalID":"35LPE545040_001","Type":"School","SubType":"High School","Name":"Jasmine High School","Orig_Name":"jasmine h sch","Source":"ZamStats","Province":"Central","Prov_Code":101,"District":"Kabwe","Distr_Code":101005,"LAT":-14.4318300001,"LONG":28.4335999999,"Data_year":2010}},{"type":"Point","coordinates":[28.41706000000005,-14.410349999999937],"properties":{"OBJECTID":2119,"FID_1":2119,"GlobalID":"35LPE527064_001","Type":"School","SubType":"High School","Name":"Mukombeko High School","Orig_Name":"mukobeko h sch","Source":"ZamStats","Province":"Central","Prov_Code":101,"District":"Kabwe","Distr_Code":101005,"LAT":-14.4103499997,"LONG":28.4170599998,"Data_year":2010}},{"type":"Point","coordinates":[28.394220000000075,-14.388459999999952],"properties":{"OBJECTID":2146,"FID_1":2146,"GlobalID":"35LPE503088_001","Type":"School","SubType":"High School","Name":"Mukobeko High School","Orig_Name":"mukobeko h sch","Source":"ZamStats","Province":"Central","Prov_Code":101,"District":"Kabwe","Distr_Code":101005,"LAT":-14.3884600001,"LONG":28.3942199997,"Data_year":2010}},{"type":"Point","coordinates":[28.414320000000032,-14.411359999999945],"properties":{"OBJECTID":2152,"FID_1":2152,"GlobalID":"35LPE524063_001","Type":"School","SubType":"High School","Name":"Mukobeko High School","Orig_Name":"mukobeko h sch","Source":"ZamStats","Province":"Central","Prov_Code":101,"District":"Kabwe","Distr_Code":101005,"LAT":-14.4113600004,"LONG":28.4143200003,"Data_year":2010}},{"type":"Point","coordinates":[28.681600571000047,-13.993049999999926],"properties":{"OBJECTID":2199,"FID_1":2199,"GlobalID":"35LPE816523_001","Type":"School","SubType":"High School","Name":"Chika High School","Orig_Name":"high school","Source":"ZamStats","Province":"Central","Prov_Code":101,"District":"Kapiri Mposhi","Distr_Code":101006,"LAT":-13.9930500004,"LONG":28.6816005709,"Data_year":2010}},{"type":"Point","coordinates":[28.67049980200005,-13.892479999999978],"properties":{"OBJECTID":2207,"FID_1":2207,"GlobalID":"35LPE805635_001","Type":"School","SubType":"High School","Name":"High School","Orig_Name":"girls tec schl","Source":"ZamStats","Province":"Central","Prov_Code":101,"District":"Kapiri Mposhi","Distr_Code":101006,"LAT":-13.8924800004,"LONG":28.6704998018,"Data_year":2010}},{"type":"Point","coordinates":[28.094299316000047,-14.142759999999953],"properties":{"OBJECTID":2221,"FID_1":2221,"GlobalID":"35LPE181362_001","Type":"School","SubType":"High School","Name":"High School","Orig_Name":"high sch","Source":"ZamStats","Province":"Central","Prov_Code":101,"District":"Kapiri Mposhi","Distr_Code":101006,"LAT":-14.1427600002,"LONG":28.094299316,"Data_year":2010}},{"type":"Point","coordinates":[29.60202520000007,-13.972019279999927],"properties":{"OBJECTID":2328,"FID_1":2328,"GlobalID":"35LQE811538_001","Type":"School","SubType":"High School","Name":"Fiwila High School","Orig_Name":"high school","Source":"ZamStats","Province":"Central","Prov_Code":101,"District":"Mkushi","Distr_Code":101008,"LAT":-13.9720192797,"LONG":29.6020251998,"Data_year":2010}},{"type":"Point","coordinates":[29.686920000000043,-13.549619999999948],"properties":{"OBJECTID":2555,"FID_1":2555,"GlobalID":"35LQF908004_001","Type":"School","SubType":"High School","Name":"Chalata High School","Orig_Name":"chalata h sch","Source":"ZamStats","Province":"Central","Prov_Code":101,"District":"Mkushi","Distr_Code":101008,"LAT":-13.5496200003,"LONG":29.6869200004,"Data_year":2010}},{"type":"Point","coordinates":[29.94357585000006,-11.118259949999981],"properties":{"OBJECTID":2561,"FID_1":2561,"GlobalID":"35LRH215693_001","Type":"School","SubType":"High School","Name":"Chilubi High School","Orig_Name":"chilubi h sch","Source":"ZamStats","Province":"Northern","Prov_Code":107,"District":"Chilubi","Distr_Code":107001,"LAT":-11.1182599501,"LONG":29.9435758499,"Data_year":2010}},{"type":"Point","coordinates":[30.172764990000076,-10.896603959999936],"properties":{"OBJECTID":2626,"FID_1":2626,"GlobalID":"36LSN909940_001","Type":"School","SubType":"High School","Name":"Chilube High School","Orig_Name":"chilube hig sh","Source":"ZamStats","Province":"Northern","Prov_Code":107,"District":"Chilubi","Distr_Code":107001,"LAT":-10.89660396,"LONG":30.1727649896,"Data_year":2010}},{"type":"Point","coordinates":[32.07551845000006,-10.54346154999996],"properties":{"OBJECTID":2850,"FID_1":2850,"GlobalID":"36LUP988343_001","Type":"School","SubType":"High School","Name":"Chinsali High School","Orig_Name":"chinsali h sch","Source":"ZamStats","Province":"Muchinga","Prov_Code":106,"District":"Chinsali","Distr_Code":106002,"LAT":-10.5434615496,"LONG":32.07551845,"Data_year":2010}},{"type":"Point","coordinates":[31.800015190000067,-10.716508379999937],"properties":{"OBJECTID":2910,"FID_1":2910,"GlobalID":"36LUP687151_002","Type":"School","SubType":"High School","Name":"Ilondola High School","Orig_Name":"ilondola hsch","Source":"ZamStats","Province":"Muchinga","Prov_Code":106,"District":"Shiwang'Andu","Distr_Code":106007,"LAT":-10.7165083801,"LONG":31.8000151899,"Data_year":2010}},{"type":"Point","coordinates":[31.571609497000054,-10.125269999999944],"properties":{"OBJECTID":2926,"FID_1":2926,"GlobalID":"36LUP434803_001","Type":"School","SubType":"High School","Name":"St jsphs High School","Orig_Name":"st jsphs h sc","Source":"ZamStats","Province":"Northern","Prov_Code":107,"District":"Mungwi","Distr_Code":107008,"LAT":-10.1252700002,"LONG":31.5716094974,"Data_year":2010}},{"type":"Point","coordinates":[33.34560628000003,-10.142118339999968],"properties":{"OBJECTID":2972,"FID_1":2972,"GlobalID":"36LWP378788_001","Type":"School","SubType":"High School","Name":"Site for hsch High School","Orig_Name":"site for hsch","Source":"ZamStats","Province":"Muchinga","Prov_Code":106,"District":"Mafinga","Distr_Code":106004,"LAT":-10.1421183401,"LONG":33.3456062803,"Data_year":2010}},{"type":"Point","coordinates":[33.34009342000007,-10.14066374999993],"properties":{"OBJECTID":2979,"FID_1":2979,"GlobalID":"36LWP372790_001","Type":"School","SubType":"High School","Name":"Mulekatembo High School","Orig_Name":"high school","Source":"ZamStats","Province":"Muchinga","Prov_Code":106,"District":"Mafinga","Distr_Code":106004,"LAT":-10.1406637496,"LONG":33.34009342,"Data_year":2010}},{"type":"Point","coordinates":[32.65028324000008,-10.167172189999974],"properties":{"OBJECTID":3035,"FID_1":3035,"GlobalID":"36LVP616760_002","Type":"School","SubType":"High School","Name":"Muchinga High School","Orig_Name":"muchinga h sch","Source":"ZamStats","Province":"Muchinga","Prov_Code":106,"District":"Isoka","Distr_Code":106003,"LAT":-10.1671721896,"LONG":32.6502832402,"Data_year":2010}},{"type":"Point","coordinates":[31.76041489000005,-11.623030149999977],"properties":{"OBJECTID":3498,"FID_1":3498,"GlobalID":"36LUN648148_003","Type":"School","SubType":"High School","Name":"Katibunga High School","Orig_Name":"katibunga h sc","Source":"ZamStats","Province":"Muchinga","Prov_Code":106,"District":"Mpika","Distr_Code":106005,"LAT":-11.6230301502,"LONG":31.7604148899,"Data_year":2010}},{"type":"Point","coordinates":[31.437678340000048,-11.836876049999944],"properties":{"OBJECTID":3517,"FID_1":3517,"GlobalID":"36LUM298910_002","Type":"School","SubType":"High School","Name":"Chitulik High School","Orig_Name":"chitulik hi sc","Source":"ZamStats","Province":"Muchinga","Prov_Code":106,"District":"Mpika","Distr_Code":106005,"LAT":-11.83687605,"LONG":31.4376783403,"Data_year":2010}},{"type":"Point","coordinates":[30.74178100000006,-9.714858999999933],"properties":{"OBJECTID":3704,"FID_1":3704,"GlobalID":"36LTQ522252_001","Type":"School","SubType":"High School","Name":"Kapatu High School","Orig_Name":"kapatu h sch","Source":"ZamStats","Province":"Northern","Prov_Code":107,"District":"Lunte","Distr_Code":107011,"LAT":-9.71485900024,"LONG":30.7417810003,"Data_year":2010}},{"type":"Point","coordinates":[29.843657860000064,-9.474519369999939],"properties":{"OBJECTID":3719,"FID_1":3719,"GlobalID":"35LRK122514_001","Type":"School","SubType":"High School","Name":"Kalabwe High School","Orig_Name":"kalabwe high","Source":"ZamStats","Province":"Northern","Prov_Code":107,"District":"Mporokoso","Distr_Code":107006,"LAT":-9.47451936977,"LONG":29.8436578602,"Data_year":2010}},{"type":"Point","coordinates":[30.111863680000056,-9.371351389999973],"properties":{"OBJECTID":3736,"FID_1":3736,"GlobalID":"36LSQ827627_001","Type":"School","SubType":"High School","Name":"Mporokoso High School","Orig_Name":"loc near high","Source":"ZamStats","Province":"Northern","Prov_Code":107,"District":"Mporokoso","Distr_Code":107006,"LAT":-9.37135139025,"LONG":30.1118636804,"Data_year":2010}},{"type":"Point","coordinates":[31.11584201000005,-8.765939259999925],"properties":{"OBJECTID":3868,"FID_1":3868,"GlobalID":"36LTR927305_003","Type":"School","SubType":"High School","Name":"Mpulungu High School","Orig_Name":"mpulungu h sch","Source":"ZamStats","Province":"Northern","Prov_Code":107,"District":"Mpulungu","Distr_Code":107007,"LAT":-8.76593925969,"LONG":31.1158420102,"Data_year":2010}},{"type":"Point","coordinates":[31.134540000000072,-8.842339999999979],"properties":{"OBJECTID":3907,"FID_1":3907,"GlobalID":"36LTR948220_003","Type":"School","SubType":"High School","Name":"Un High School","Orig_Name":"high sch","Source":"ZamStats","Province":"Northern","Prov_Code":107,"District":"Mpulungu","Distr_Code":107007,"LAT":-8.84234000039,"LONG":31.1345400001,"Data_year":2010}},{"type":"Point","coordinates":[31.372070312000062,-10.17563999999993],"properties":{"OBJECTID":4002,"FID_1":4002,"GlobalID":"36LUP216747_002","Type":"School","SubType":"High School","Name":"Mwingu High School","Orig_Name":"mwingu h schol","Source":"ZamStats","Province":"Northern","Prov_Code":107,"District":"Mungwi","Distr_Code":107008,"LAT":-10.1756400001,"LONG":31.3720703122,"Data_year":2010}},{"type":"Point","coordinates":[32.74666750000006,-9.338671519999934],"properties":{"OBJECTID":4103,"FID_1":4103,"GlobalID":"36LVQ721676_001","Type":"School","SubType":"High School","Name":"Nakonde High School","Orig_Name":"nakonde high","Source":"ZamStats","Province":"Muchinga","Prov_Code":106,"District":"Nakonde","Distr_Code":106006,"LAT":-9.33867151997,"LONG":32.7466675004,"Data_year":2010}},{"type":"Point","coordinates":[24.332572200000072,-13.415881599999977],"properties":{"OBJECTID":4216,"FID_1":4216,"GlobalID":"35LKF111153_001","Type":"School","SubType":"High School","Name":"Loloma High School","Orig_Name":"loloma high sc","Source":"ZamStats","Province":"Northwestern","Prov_Code":108,"District":"Manyinga","Distr_Code":108005,"LAT":-13.4158816003,"LONG":24.3325721999,"Data_year":2010}},{"type":"Point","coordinates":[25.582458130000077,-12.172581579999928],"properties":{"OBJECTID":4272,"FID_1":4272,"GlobalID":"35LLG457539_002","Type":"School","SubType":"High School","Name":"Jiwundu High School","Orig_Name":"jiwundu high s","Source":"ZamStats","Province":"Northwestern","Prov_Code":108,"District":"Kalumbila","Distr_Code":108010,"LAT":-12.1725815799,"LONG":25.5824581301,"Data_year":2010}},{"type":"Point","coordinates":[23.068019950000064,-13.397129939999957],"properties":{"OBJECTID":4349,"FID_1":4349,"GlobalID":"34LGL239180_001","Type":"School","SubType":"High School","Name":"Kaumbu High School","Orig_Name":"kaumbu h schoo","Source":"ZamStats","Province":"Northwestern","Prov_Code":108,"District":"Zambezi","Distr_Code":108009,"LAT":-13.3971299397,"LONG":23.0680199496,"Data_year":2010}},{"type":"Point","coordinates":[24.187629000000072,-11.172691999999927],"properties":{"OBJECTID":4411,"FID_1":4411,"GlobalID":"35LJH928634_002","Type":"School","SubType":"High School","Name":"Kaleni High School","Orig_Name":"kaleni high sc","Source":"ZamStats","Province":"Northwestern","Prov_Code":108,"District":"Ikelenge","Distr_Code":108002,"LAT":-11.1726919997,"LONG":24.187629,"Data_year":2010}},{"type":"Point","coordinates":[26.185662000000036,-13.909810999999934],"properties":{"OBJECTID":4415,"FID_1":4415,"GlobalID":"35LME120620_001","Type":"School","SubType":"High School","Name":"Kamakechi High School","Orig_Name":"kamakechi hsch","Source":"ZamStats","Province":"Northwestern","Prov_Code":108,"District":"Kasempa","Distr_Code":108004,"LAT":-13.9098110001,"LONG":26.1856619997,"Data_year":2010}},{"type":"Point","coordinates":[26.515234000000078,-13.001814999999965],"properties":{"OBJECTID":4461,"FID_1":4461,"GlobalID":"35LMF474626_001","Type":"School","SubType":"High School","Name":"Lunga High School","Orig_Name":"lunga high sch","Source":"ZamStats","Province":"Northwestern","Prov_Code":108,"District":"Kasempa","Distr_Code":108004,"LAT":-13.0018150001,"LONG":26.5152340003,"Data_year":2010}},{"type":"Point","coordinates":[26.47992762000007,-17.02715115999996],"properties":{"OBJECTID":4618,"FID_1":4618,"GlobalID":"35KMB446173_001","Type":"School","SubType":"High School","Name":"Mwata High School","Orig_Name":"mwata day high","Source":"ZamStats","Province":"Southern","Prov_Code":109,"District":"Kalomo","Distr_Code":109004,"LAT":-17.0271511604,"LONG":26.4799276196,"Data_year":2010}},{"type":"Point","coordinates":[25.845835970000053,-17.86038960999997],"properties":{"OBJECTID":4667,"FID_1":4667,"GlobalID":"35KLA777248_001","Type":"School","SubType":"High School","Name":"Busongo High School","Orig_Name":"busongo high s","Source":"ZamStats","Province":"Southern","Prov_Code":109,"District":"Livingstone","Distr_Code":109006,"LAT":-17.8603896097,"LONG":25.8458359696,"Data_year":2010}},{"type":"Point","coordinates":[27.754732360000048,-16.59771046999998],"properties":{"OBJECTID":4814,"FID_1":4814,"GlobalID":"35KNB805647_001","Type":"School","SubType":"High School","Name":"Munyumbwe High School","Orig_Name":"munyumbwe high","Source":"ZamStats","Province":"Southern","Prov_Code":109,"District":"Gwembe","Distr_Code":109003,"LAT":-16.59771047,"LONG":27.7547323598,"Data_year":2010}},{"type":"Point","coordinates":[27.657773100000043,-16.87790222999996],"properties":{"OBJECTID":4823,"FID_1":4823,"GlobalID":"35KNB700338_001","Type":"School","SubType":"High School","Name":"Siabamba High School","Orig_Name":"siabamba sch h","Source":"ZamStats","Province":"Southern","Prov_Code":109,"District":"Sinazongwe","Distr_Code":109003,"LAT":-16.8779022304,"LONG":27.6577731,"Data_year":2010}},{"type":"Point","coordinates":[26.469151170000032,-16.73222114999993],"properties":{"OBJECTID":4956,"FID_1":4956,"GlobalID":"35KMB434499_001","Type":"School","SubType":"High School","Name":"Mubanga High School","Orig_Name":"mubanga h sch","Source":"ZamStats","Province":"Southern","Prov_Code":109,"District":"Kalomo","Distr_Code":109004,"LAT":-16.7322211502,"LONG":26.4691511703,"Data_year":2010}},{"type":"Point","coordinates":[26.924707690000048,-17.15943158999994],"properties":{"OBJECTID":4980,"FID_1":4980,"GlobalID":"35KMB919028_003","Type":"School","SubType":"High School","Name":"Dimbwe High School","Orig_Name":"dimbwe hi sch","Source":"ZamStats","Province":"Southern","Prov_Code":109,"District":"Kalomo","Distr_Code":109004,"LAT":-17.1594315903,"LONG":26.92470769,"Data_year":2010}},{"type":"Point","coordinates":[26.489690000000053,-16.51927999999998],"properties":{"OBJECTID":5009,"FID_1":5009,"GlobalID":"35KMB455735_001","Type":"School","SubType":"High School","Name":"Jonathan sim chikanta High School","Orig_Name":"jonathan sim chikanta high","Source":"ZamStats","Province":"Southern","Prov_Code":109,"District":"Kalomo","Distr_Code":109004,"LAT":-16.5192799999,"LONG":26.4896899996,"Data_year":2010}},{"type":"Point","coordinates":[25.857000351000067,-17.844109999999944],"properties":{"OBJECTID":5095,"FID_1":5095,"GlobalID":"35KLA788266_002","Type":"School","SubType":"High School","Name":"High School","Orig_Name":"e b high schoo","Source":"ZamStats","Province":"Southern","Prov_Code":109,"District":"Livingstone","Distr_Code":109006,"LAT":-17.8441100002,"LONG":25.8570003513,"Data_year":2010}},{"type":"Point","coordinates":[29.041040680000037,-15.895402369999942],"properties":{"OBJECTID":5334,"FID_1":5334,"GlobalID":"35LQC185415_001","Type":"School","SubType":"High School","Name":"Chitende High School","Orig_Name":"chitende h sch","Source":"ZamStats","Province":"Lusaka","Prov_Code":105,"District":"Kafue","Distr_Code":105004,"LAT":-15.8954023703,"LONG":29.04104068,"Data_year":2010}},{"type":"Point","coordinates":[28.700215650000075,-16.531831219999958],"properties":{"OBJECTID":5340,"FID_1":5340,"GlobalID":"35KPB814714_002","Type":"School","SubType":"High School","Name":"Siyavonga High School","Orig_Name":"siyavonga high","Source":"ZamStats","Province":"Southern","Prov_Code":109,"District":"Siavonga","Distr_Code":109011,"LAT":-16.5318312198,"LONG":28.7002156496,"Data_year":2010}},{"type":"Point","coordinates":[28.755650960000025,-16.18778082999995],"properties":{"OBJECTID":5382,"FID_1":5382,"GlobalID":"35KPC876094_003","Type":"School","SubType":"High School","Name":"Lusitu High School","Orig_Name":"lusitu high","Source":"ZamStats","Province":"Lusaka","Prov_Code":105,"District":"Chirundu","Distr_Code":105002,"LAT":-16.1877808303,"LONG":28.7556509604,"Data_year":2010}},{"type":"Point","coordinates":[28.865841800000055,-15.976938589999975],"properties":{"OBJECTID":5387,"FID_1":5387,"GlobalID":"35LPC996327_001","Type":"School","SubType":"High School","Name":"Chirundu High School","Orig_Name":"chirundu h sch","Source":"ZamStats","Province":"Lusaka","Prov_Code":105,"District":"Chirundu","Distr_Code":105002,"LAT":-15.9769385897,"LONG":28.8658417998,"Data_year":2010}},{"type":"Point","coordinates":[28.859968940000044,-16.027651109999965],"properties":{"OBJECTID":5388,"FID_1":5388,"GlobalID":"35KPC990271_001","Type":"School","SubType":"High School","Name":"Chrundu High School","Orig_Name":"chrundu hgh sch","Source":"ZamStats","Province":"Lusaka","Prov_Code":105,"District":"Chirundu","Distr_Code":105002,"LAT":-16.0276511099,"LONG":28.8599689399,"Data_year":2010}},{"type":"Point","coordinates":[28.89197825000008,-15.96262723999996],"properties":{"OBJECTID":5389,"FID_1":5389,"GlobalID":"35LQC024342_001","Type":"School","SubType":"High School","Name":"Kapululira High School","Orig_Name":"kapululira h school","Source":"ZamStats","Province":"Lusaka","Prov_Code":105,"District":"Chirundu","Distr_Code":105002,"LAT":-15.9626272401,"LONG":28.8919782496,"Data_year":2010}},{"type":"Point","coordinates":[27.26101656000003,-16.771126179999953],"properties":{"OBJECTID":5407,"FID_1":5407,"GlobalID":"35KNB278457_002","Type":"School","SubType":"High School","Name":"Batoka High School","Orig_Name":"batoka high sc","Source":"ZamStats","Province":"Southern","Prov_Code":109,"District":"Pemba","Distr_Code":109010,"LAT":-16.7711261798,"LONG":27.2610165598,"Data_year":2010}},{"type":"Point","coordinates":[27.882186740000066,-16.227410559999953],"properties":{"OBJECTID":5483,"FID_1":5483,"GlobalID":"35KNC942057_001","Type":"School","SubType":"High School","Name":"Nkonkola High School","Orig_Name":"nkonkola h sc","Source":"ZamStats","Province":"Southern","Prov_Code":109,"District":"Mazabuka","Distr_Code":109007,"LAT":-16.2274105597,"LONG":27.8821867398,"Data_year":2010}},{"type":"Point","coordinates":[27.824006780000047,-16.181666569999948],"properties":{"OBJECTID":5484,"FID_1":5484,"GlobalID":"35KNC880107_001","Type":"School","SubType":"High School","Name":"St joseph High School","Orig_Name":"st joseph h sc","Source":"ZamStats","Province":"Southern","Prov_Code":109,"District":"Mazabuka","Distr_Code":109007,"LAT":-16.18166657,"LONG":27.82400678,"Data_year":2010}},{"type":"Point","coordinates":[26.482709000000057,-17.03008399999993],"properties":{"OBJECTID":5536,"FID_1":5536,"GlobalID":"35KMB449170_001","Type":"School","SubType":"High School","Name":"Kalomo High School","Orig_Name":"kalomo high","Source":"ZamStats","Province":"Southern","Prov_Code":109,"District":"Kalomo","Distr_Code":109004,"LAT":-17.0300839998,"LONG":26.4827089996,"Data_year":2010}},{"type":"Point","coordinates":[27.47076100000004,-16.27525399999996],"properties":{"OBJECTID":5556,"FID_1":5556,"GlobalID":"35KNC502005_001","Type":"School","SubType":"High School","Name":"Monze High School","Orig_Name":"monze h pvt sc","Source":"ZamStats","Province":"Southern","Prov_Code":109,"District":"Monze","Distr_Code":109008,"LAT":-16.2752539998,"LONG":27.4707609997,"Data_year":2010}},{"type":"Point","coordinates":[23.500800240000046,-16.605830769999955],"properties":{"OBJECTID":5614,"FID_1":5614,"GlobalID":"34KGG668623_002","Type":"School","SubType":"High School","Name":"Sioma High School","Orig_Name":"sioma h sch","Source":"ZamStats","Province":"Western","Prov_Code":110,"District":"Sioma","Distr_Code":110016,"LAT":-16.6058307698,"LONG":23.50080024,"Data_year":2010}},{"type":"Point","coordinates":[23.324521700000048,-16.400256129999946],"properties":{"OBJECTID":5664,"FID_1":5664,"GlobalID":"34KGG482853_001","Type":"School","SubType":"High School","Name":"Nangweshi High School","Orig_Name":"nangweshi high","Source":"ZamStats","Province":"Western","Prov_Code":110,"District":"Sioma","Distr_Code":110016,"LAT":-16.40025613,"LONG":23.3245217003,"Data_year":2010}},{"type":"Point","coordinates":[24.952028460000065,-16.71193895999994],"properties":{"OBJECTID":5771,"FID_1":5771,"GlobalID":"35KKB816511_001","Type":"School","SubType":"High School","Name":"Sichili s High School","Orig_Name":"sichili high s","Source":"ZamStats","Province":"Western","Prov_Code":110,"District":"Mwandi","Distr_Code":110009,"LAT":-16.7119389604,"LONG":24.9520284601,"Data_year":2010}},{"type":"Point","coordinates":[23.294749930000023,-16.091019979999942],"properties":{"OBJECTID":5846,"FID_1":5846,"GlobalID":"34KGH454196_001","Type":"School","SubType":"High School","Name":"Matauka High School","Orig_Name":"matauka h scho","Source":"ZamStats","Province":"Western","Prov_Code":110,"District":"Senanga","Distr_Code":110012,"LAT":-16.0910199799,"LONG":23.29474993,"Data_year":2010}},{"type":"Point","coordinates":[23.299839930000076,-16.109249949999935],"properties":{"OBJECTID":5848,"FID_1":5848,"GlobalID":"34KGH459176_001","Type":"School","SubType":"High School","Name":"Senanga High School","Orig_Name":"senanga high school","Source":"ZamStats","Province":"Western","Prov_Code":110,"District":"Senanga","Distr_Code":110012,"LAT":-16.10924995,"LONG":23.29983993,"Data_year":2010}},{"type":"Point","coordinates":[23.148193280000044,-15.130018269999937],"properties":{"OBJECTID":5927,"FID_1":5927,"GlobalID":"34LGJ308261_001","Type":"School","SubType":"High School","Name":"Limulunga High School","Orig_Name":"limulunga high","Source":"ZamStats","Province":"Western","Prov_Code":110,"District":"Limulunga","Distr_Code":110003,"LAT":-15.1300182703,"LONG":23.1481932797,"Data_year":2010}},{"type":"Point","coordinates":[23.22033833000006,-15.44344000999996],"properties":{"OBJECTID":5930,"FID_1":5930,"GlobalID":"34LGH382913_001","Type":"School","SubType":"High School","Name":"Namushakende High School","Orig_Name":"namushakende high school","Source":"ZamStats","Province":"Western","Prov_Code":110,"District":"Mongu","Distr_Code":110007,"LAT":-15.44344001,"LONG":23.2203383304,"Data_year":2010}},{"type":"Point","coordinates":[23.258566340000073,-15.575550949999979],"properties":{"OBJECTID":5958,"FID_1":5958,"GlobalID":"34LGH422767_001","Type":"School","SubType":"High School","Name":"Mooyo High School","Orig_Name":"mooyo h school","Source":"ZamStats","Province":"Western","Prov_Code":110,"District":"Nalolo","Distr_Code":110010,"LAT":-15.5755509501,"LONG":23.2585663397,"Data_year":2010}},{"type":"Point","coordinates":[23.644096760000025,-15.482225079999978],"properties":{"OBJECTID":5964,"FID_1":5964,"GlobalID":"34LGH837865_001","Type":"School","SubType":"High School","Name":"Nakanya High School","Orig_Name":"nakanya h sch","Source":"ZamStats","Province":"Western","Prov_Code":110,"District":"Mongu","Distr_Code":110007,"LAT":-15.48222508,"LONG":23.6440967598,"Data_year":2010}},{"type":"Point","coordinates":[23.726318450000065,-15.256329859999937],"properties":{"OBJECTID":5992,"FID_1":5992,"GlobalID":"34LGJ928114_001","Type":"School","SubType":"High School","Name":"Lukalanya High School","Orig_Name":"lukalanya h sh","Source":"ZamStats","Province":"Western","Prov_Code":110,"District":"Mongu","Distr_Code":110007,"LAT":-15.2563298602,"LONG":23.7263184496,"Data_year":2010}},{"type":"Point","coordinates":[24.18884385000007,-14.532997179999938],"properties":{"OBJECTID":6045,"FID_1":6045,"GlobalID":"35LJD970914_001","Type":"School","SubType":"High School","Name":"Mayukwakwa High School","Orig_Name":"mayukwakwa h sch","Source":"ZamStats","Province":"Western","Prov_Code":110,"District":"Kaoma","Distr_Code":110002,"LAT":-14.5329971796,"LONG":24.1888438501,"Data_year":2010}},{"type":"Point","coordinates":[24.51023678000007,-14.657329549999929],"properties":{"OBJECTID":6068,"FID_1":6068,"GlobalID":"35LKD318780_001","Type":"School","SubType":"High School","Name":"Co High School","Orig_Name":"high school co","Source":"ZamStats","Province":"Western","Prov_Code":110,"District":"Kaoma","Distr_Code":110002,"LAT":-14.6573295496,"LONG":24.5102367802,"Data_year":2010}},{"type":"Point","coordinates":[24.510560740000074,-14.65863201999997],"properties":{"OBJECTID":6072,"FID_1":6072,"GlobalID":"35LKD318779_001","Type":"School","SubType":"High School","Name":"Mangango High School","Orig_Name":"mangango h sch","Source":"ZamStats","Province":"Western","Prov_Code":110,"District":"Kaoma","Distr_Code":110002,"LAT":-14.6586320198,"LONG":24.5105607403,"Data_year":2010}},{"type":"Point","coordinates":[23.341448110000044,-14.401717879999978],"properties":{"OBJECTID":6093,"FID_1":6093,"GlobalID":"34LGK524065_001","Type":"School","SubType":"High School","Name":"Lukulu High School","Orig_Name":"lukulu high sc","Source":"ZamStats","Province":"Western","Prov_Code":110,"District":"Lukulu","Distr_Code":110005,"LAT":-14.4017178804,"LONG":23.3414481103,"Data_year":2010}},{"type":"Point","coordinates":[24.450635920000025,-15.058677879999948],"properties":{"OBJECTID":6144,"FID_1":6144,"GlobalID":"35LKD259335_001","Type":"School","SubType":"High School","Name":"Luampa High School","Orig_Name":"luampa high sh","Source":"ZamStats","Province":"Western","Prov_Code":110,"District":"Luampa","Distr_Code":110004,"LAT":-15.0586778799,"LONG":24.4506359203,"Data_year":2010}},{"type":"Point","coordinates":[25.379354730000045,-14.868446479999932],"properties":{"OBJECTID":6171,"FID_1":6171,"GlobalID":"35LLD256555_001","Type":"School","SubType":"High School","Name":"Nkeyema High School","Orig_Name":"nkeyema h sch","Source":"ZamStats","Province":"Western","Prov_Code":110,"District":"Nkeyema","Distr_Code":110011,"LAT":-14.86844648,"LONG":25.3793547302,"Data_year":2010}},{"type":"Point","coordinates":[30.452202000000057,-12.993335999999942],"properties":{"OBJECTID":6336,"FID_1":6336,"GlobalID":"36LTL236622_001","Type":"School","SubType":"High School","Name":"Mukado High School","Orig_Name":"mukado high sh","Source":"ZamStats","Province":"Central","Prov_Code":101,"District":"Chitambo","Distr_Code":101003,"LAT":-12.9933360003,"LONG":30.4522020003,"Data_year":2010}},{"type":"Point","coordinates":[28.438686438000047,-14.390134701999955],"properties":{"OBJECTID":6412,"FID_1":6412,"GlobalID":"35LPE551086_003","Type":"School","SubType":"High School","Name":"Bwacha High School","Orig_Name":"bwacha high school","Source":"MoGE","Province":"Central","Prov_Code":101,"District":"Kabwe","Distr_Code":101005,"LAT":-14.3901347024,"LONG":28.4386864377,"Data_year":"Prior to 2015"}},{"type":"Point","coordinates":[28.48440000000005,-14.397979999999961],"properties":{"OBJECTID":6414,"FID_1":6414,"GlobalID":"35LPE600077_001","Type":"School","SubType":"High School","Name":"Chindwin High School","Orig_Name":"chindwin high school","Source":"MoGE","Province":"Central","Prov_Code":101,"District":"Kabwe","Distr_Code":101005,"LAT":-14.3979800003,"LONG":28.4843999999,"Data_year":"Prior to 2015"}},{"type":"Point","coordinates":[28.466816437000034,-14.44730470299993],"properties":{"OBJECTID":6418,"FID_1":6418,"GlobalID":"35LPE581022_003","Type":"School","SubType":"High School","Name":"Highridge High School","Orig_Name":"highridge high","Source":"MoGE","Province":"Central","Prov_Code":101,"District":"Kabwe","Distr_Code":101005,"LAT":-14.4473047028,"LONG":28.4668164372,"Data_year":"Prior to 2015"}},{"type":"Point","coordinates":[28.465126438000027,-14.44644470299994],"properties":{"OBJECTID":6421,"FID_1":6421,"GlobalID":"35LPE579023_001","Type":"School","SubType":"High School","Name":"Kabwe High School","Orig_Name":"kabwe high school","Source":"MoGE","Province":"Central","Prov_Code":101,"District":"Kabwe","Distr_Code":101005,"LAT":-14.4464447028,"LONG":28.4651264375,"Data_year":"Prior to 2015"}},{"type":"Point","coordinates":[28.463356438000062,-14.434094702999971],"properties":{"OBJECTID":6422,"FID_1":6422,"GlobalID":"35LPE577037_003","Type":"School","SubType":"High School","Name":"Kalonga High School","Orig_Name":"kalonga high school","Source":"MoGE","Province":"Central","Prov_Code":101,"District":"Kabwe","Distr_Code":101005,"LAT":-14.4340947025,"LONG":28.4633564377,"Data_year":"Prior to 2015"}},{"type":"Point","coordinates":[28.446566438000048,-14.399364702999947],"properties":{"OBJECTID":6429,"FID_1":6429,"GlobalID":"35LPE559076_003","Type":"School","SubType":"High School","Name":"Raphael kombe High School","Orig_Name":"raphael kombe g h sc","Source":"MoGE","Province":"Central","Prov_Code":101,"District":"Kabwe","Distr_Code":101005,"LAT":-14.3993647026,"LONG":28.4465664378,"Data_year":"Prior to 2015"}},{"type":"Point","coordinates":[28.69057643700006,-13.972164702999976],"properties":{"OBJECTID":6434,"FID_1":6434,"GlobalID":"35LPE826547_001","Type":"School","SubType":"High School","Name":"Chika High School","Orig_Name":"chika high school","Source":"MoGE","Province":"Central","Prov_Code":101,"District":"Kapiri Mposhi","Distr_Code":101006,"LAT":-13.9721647027,"LONG":28.6905764372,"Data_year":"Prior to 2015"}},{"type":"Point","coordinates":[28.066100000000063,-12.630469999999946],"properties":{"OBJECTID":6564,"FID_1":6564,"GlobalID":"35LPG157034_001","Type":"School","SubType":"High School","Name":"Chambishi High School","Orig_Name":"chambishi high","Source":"MoGE","Province":"Copperbelt","Prov_Code":102,"District":"Kalulushi","Distr_Code":102003,"LAT":-12.6304700003,"LONG":28.0661000003,"Data_year":"Prior to 2015"}},{"type":"Point","coordinates":[28.090410000000077,-12.835209999999961],"properties":{"OBJECTID":6567,"FID_1":6567,"GlobalID":"35LPF183808_001","Type":"School","SubType":"High School","Name":"Chavuma High School","Orig_Name":"chavuma high","Source":"MoGE","Province":"Copperbelt","Prov_Code":102,"District":"Kalulushi","Distr_Code":102003,"LAT":-12.8352099999,"LONG":28.0904099999,"Data_year":"Prior to 2015"}},{"type":"Point","coordinates":[28.089950000000044,-12.840949999999964],"properties":{"OBJECTID":6574,"FID_1":6574,"GlobalID":"35LPF182802_001","Type":"School","SubType":"High School","Name":"Kalulushi High School","Orig_Name":"kalulushi high","Source":"MoGE","Province":"Copperbelt","Prov_Code":102,"District":"Kalulushi","Distr_Code":102003,"LAT":-12.8409500002,"LONG":28.0899500003,"Data_year":"Prior to 2015"}},{"type":"Point","coordinates":[28.20437000000004,-12.769979999999975],"properties":{"OBJECTID":6612,"FID_1":6612,"GlobalID":"35LPF307879_001","Type":"School","SubType":"High School","Name":"Liberty High School","Orig_Name":"liberty high school","Source":"MoGE","Province":"Copperbelt","Prov_Code":102,"District":"Kitwe","Distr_Code":102004,"LAT":-12.7699800001,"LONG":28.2043699996,"Data_year":"Prior to 2015"}},{"type":"Point","coordinates":[28.010876438000025,-12.890904701999943],"properties":{"OBJECTID":6683,"FID_1":6683,"GlobalID":"35LPF096747_003","Type":"School","SubType":"High School","Name":"Kalumbwa High School","Orig_Name":"kalumbwa high school","Source":"MoGE","Province":"Copperbelt","Prov_Code":102,"District":"Lufwanyama","Distr_Code":102006,"LAT":-12.8909047022,"LONG":28.0108764376,"Data_year":"Prior to 2015"}},{"type":"Point","coordinates":[28.67612643700005,-13.560294702999954],"properties":{"OBJECTID":6689,"FID_1":6689,"GlobalID":"35LPF813002_003","Type":"School","SubType":"High School","Name":"Mushili High School","Orig_Name":"mushili high school","Source":"MoGE","Province":"Copperbelt","Prov_Code":102,"District":"Masaiti","Distr_Code":102007,"LAT":-13.5602947029,"LONG":28.6761264372,"Data_year":"Prior to 2015"}},{"type":"Point","coordinates":[28.182600000000036,-13.515139999999974],"properties":{"OBJECTID":6698,"FID_1":6698,"GlobalID":"35LPF279055_001","Type":"School","SubType":"High School","Name":"Mpongwe High School","Orig_Name":"mpongwe high school","Source":"MoGE","Province":"Copperbelt","Prov_Code":102,"District":"Mpongwe","Distr_Code":102008,"LAT":-13.5151400002,"LONG":28.1826000002,"Data_year":"Prior to 2015"}},{"type":"Point","coordinates":[28.21427643800007,-12.520334701999957],"properties":{"OBJECTID":6705,"FID_1":6705,"GlobalID":"35LPG319156_004","Type":"School","SubType":"High School","Name":"Butondo High School","Orig_Name":"butondo high school","Source":"MoGE","Province":"Copperbelt","Prov_Code":102,"District":"Mufulira","Distr_Code":102009,"LAT":-12.5203347022,"LONG":28.2142764375,"Data_year":"Prior to 2015"}},{"type":"Point","coordinates":[28.264156437000054,-12.556334701999958],"properties":{"OBJECTID":6717,"FID_1":6717,"GlobalID":"35LPG373115_001","Type":"School","SubType":"High School","Name":"Mufulira High School","Orig_Name":"mufulira high school","Source":"MoGE","Province":"Copperbelt","Prov_Code":102,"District":"Mufulira","Distr_Code":102009,"LAT":-12.5563347022,"LONG":28.2641564373,"Data_year":"Prior to 2015"}},{"type":"Point","coordinates":[28.640100000000075,-13.022989999999936],"properties":{"OBJECTID":6760,"FID_1":6760,"GlobalID":"35LPF778597_002","Type":"School","SubType":"High School","Name":"Muzi High School","Orig_Name":"muzi high school","Source":"MoGE","Province":"Copperbelt","Prov_Code":102,"District":"Ndola","Distr_Code":102010,"LAT":-13.0229899999,"LONG":28.6400999998,"Data_year":"Prior to 2015"}},{"type":"Point","coordinates":[32.643316438000056,-13.638854701999946],"properties":{"OBJECTID":6799,"FID_1":6799,"GlobalID":"36LVK614921_001","Type":"School","SubType":"High School","Name":"Hillside High School","Orig_Name":"hillside girls high.","Source":"MoGE","Province":"Eastern","Prov_Code":103,"District":"Chipata","Distr_Code":103002,"LAT":-13.6388547024,"LONG":32.6433164378,"Data_year":"Prior to 2015"}},{"type":"Point","coordinates":[29.093176438000057,-10.73345470299995],"properties":{"OBJECTID":6861,"FID_1":6861,"GlobalID":"35LQJ289127_003","Type":"School","SubType":"High School","Name":"Chipili High School","Orig_Name":"chipili high school","Source":"MoGE","Province":"Luapula","Prov_Code":104,"District":"Chipili","Distr_Code":104003,"LAT":-10.7334547029,"LONG":29.0931764375,"Data_year":"Prior to 2015"}},{"type":"Point","coordinates":[28.264360000000067,-15.41904999999997],"properties":{"OBJECTID":7022,"FID_1":7022,"GlobalID":"35LPC356949_001","Type":"School","SubType":"High School","Name":"Chinika High School","Orig_Name":"chinika high","Source":"MoGE","Province":"Lusaka","Prov_Code":105,"District":"Lusaka","Distr_Code":105006,"LAT":-15.4190499996,"LONG":28.2643599997,"Data_year":"Prior to 2015"}},{"type":"Point","coordinates":[28.70533000000006,-15.386099999999942],"properties":{"OBJECTID":7043,"FID_1":7043,"GlobalID":"35LPC830982_001","Type":"School","SubType":"High School","Name":"Mukamambo High School","Orig_Name":"mukamambo ii girls high","Source":"MoGE","Province":"Lusaka","Prov_Code":105,"District":"Chongwe","Distr_Code":105003,"LAT":-15.3860999999,"LONG":28.7053299997,"Data_year":"Prior to 2015"}},{"type":"Point","coordinates":[28.24636000000004,-15.360269999999957],"properties":{"OBJECTID":7104,"FID_1":7104,"GlobalID":"35LPD337014_001","Type":"School","SubType":"High School","Name":"Chunga High School","Orig_Name":"chunga high","Source":"MoGE","Province":"Lusaka","Prov_Code":105,"District":"Lusaka","Distr_Code":105006,"LAT":-15.3602700004,"LONG":28.2463599997,"Data_year":"Prior to 2015"}},{"type":"Point","coordinates":[28.345180000000028,-15.42029999999994],"properties":{"OBJECTID":7126,"FID_1":7126,"GlobalID":"35LPC443947_001","Type":"School","SubType":"High School","Name":"Kabulonga High School","Orig_Name":"kabulonga girls high","Source":"MoGE","Province":"Lusaka","Prov_Code":105,"District":"Lusaka","Distr_Code":105006,"LAT":-15.4202999996,"LONG":28.34518,"Data_year":"Prior to 2015"}},{"type":"Point","coordinates":[28.29382000000004,-15.469859999999926],"properties":{"OBJECTID":7132,"FID_1":7132,"GlobalID":"35LPC387892_001","Type":"School","SubType":"High School","Name":"Kamulanga High School","Orig_Name":"kamulanga high","Source":"MoGE","Province":"Lusaka","Prov_Code":105,"District":"Lusaka","Distr_Code":105006,"LAT":-15.4698599999,"LONG":28.2938200003,"Data_year":"Prior to 2015"}},{"type":"Point","coordinates":[28.313500000000033,-15.440909999999974],"properties":{"OBJECTID":7145,"FID_1":7145,"GlobalID":"35LPC409924_001","Type":"School","SubType":"High School","Name":"Libala High School","Orig_Name":"libala high","Source":"MoGE","Province":"Lusaka","Prov_Code":105,"District":"Lusaka","Distr_Code":105006,"LAT":-15.4409100004,"LONG":28.3135000004,"Data_year":"Prior to 2015"}},{"type":"Point","coordinates":[28.346780000000024,-15.380979999999965],"properties":{"OBJECTID":7170,"FID_1":7170,"GlobalID":"35LPC445990_001","Type":"School","SubType":"High School","Name":"Munali High School","Orig_Name":"munali girls high","Source":"MoGE","Province":"Lusaka","Prov_Code":105,"District":"Lusaka","Distr_Code":105006,"LAT":-15.3809800003,"LONG":28.34678,"Data_year":"Prior to 2015"}},{"type":"Point","coordinates":[28.306400000000053,-15.385369999999966],"properties":{"OBJECTID":7183,"FID_1":7183,"GlobalID":"35LPC402986_001","Type":"School","SubType":"High School","Name":"Olympia High School","Orig_Name":"olympia high","Source":"MoGE","Province":"Lusaka","Prov_Code":105,"District":"Lusaka","Distr_Code":105006,"LAT":-15.3853700004,"LONG":28.3064000004,"Data_year":"Prior to 2015"}},{"type":"Point","coordinates":[25.005310000000065,-13.143959999999936],"properties":{"OBJECTID":7364,"FID_1":7364,"GlobalID":"35LKF837460_001","Type":"School","SubType":"High School","Name":"Mufumbwe High School","Orig_Name":"mufumbwe high","Source":"MoGE","Province":"Northwestern","Prov_Code":108,"District":"Mufumbwe","Distr_Code":108006,"LAT":-13.14396,"LONG":25.0053099999,"Data_year":"Prior to 2015"}},{"type":"Point","coordinates":[26.42569000000003,-12.174579999999935],"properties":{"OBJECTID":7425,"FID_1":7425,"GlobalID":"35LMG375540_001","Type":"School","SubType":"High School","Name":"Solwezi High School","Orig_Name":"solwezi technical high","Source":"MoGE","Province":"Northwestern","Prov_Code":108,"District":"Solwezi","Distr_Code":108008,"LAT":-12.1745800003,"LONG":26.4256899998,"Data_year":"Prior to 2015"}},{"type":"Point","coordinates":[26.980356438000058,-16.81798470299998],"properties":{"OBJECTID":7648,"FID_1":7648,"GlobalID":"35KMB979405_001","Type":"School","SubType":"High School","Name":"Choma High School","Orig_Name":"choma day high","Source":"MoGE","Province":"Southern","Prov_Code":109,"District":"Choma","Distr_Code":109002,"LAT":-16.817984703,"LONG":26.9803564378,"Data_year":"Prior to 2015"}},{"type":"Point","coordinates":[28.05809400000004,-14.79838499999994],"properties":{"OBJECTID":7888,"FID_1":7888,"GlobalID":"35LPD138637_001","Type":"School","SubType":"High School","Name":"Banani High School","Orig_Name":"banani international high school","Source":"MWDSEP","Province":"Central","Prov_Code":101,"District":"Chisamba","Distr_Code":101002,"LAT":-14.7983850002,"LONG":28.0580939998,"Data_year":"2017-2018"}},{"type":"Point","coordinates":[27.609452000000033,-12.857282999999939],"properties":{"OBJECTID":8178,"FID_1":8178,"GlobalID":"35LNF661785_001","Type":"School","SubType":"High School","Name":"Lufwanyama High School","Orig_Name":"lufwanyama boarding high school","Source":"MWDSEP","Province":"Copperbelt","Prov_Code":102,"District":"Lufwanyama","Distr_Code":102006,"LAT":-12.8572829998,"LONG":27.6094520004,"Data_year":"2017-2018"}},{"type":"Point","coordinates":[28.797746000000075,-14.659445999999946],"properties":{"OBJECTID":8297,"FID_1":8297,"GlobalID":"35LPD936785_002","Type":"School","SubType":"High School","Name":"Mulungushi Agro High School","Orig_Name":"mulungushi agro high school","Source":"MWDSEP","Province":"Central","Prov_Code":101,"District":"Chisamba","Distr_Code":101002,"LAT":-14.6594459997,"LONG":28.7977459996,"Data_year":"2017-2018"}}]}},"arcs":[],"bbox":[23.068019950000064,-17.86038960999997,33.34560628000003,-8.765939259999925]}